City,Country,Cloud_Cover,Latitude,Longitude,Wind_Speed,Humidity,Temp,Temp_Min,Temp_Max,Hemi
Ushuaia,AR,75.0,-54.8,-68.3,14.92,70.0,40.65799999999996,40.65799999999996,40.65799999999996,South
Nebbi,UG,98.0,2.4783,31.0889,1.81,63.0,74.26399999999995,74.26399999999995,74.26399999999995,North
Sitka,US,75.0,57.0531,-135.33,8.23,55.0,33.69199999999995,33.69199999999995,33.69199999999995,North
Alta Floresta,BR,97.0,-9.8756,-56.0861,1.5,95.0,77.12600000000003,77.12600000000003,77.12600000000003,South
Ribeira Grande,PT,75.0,38.5167,-28.7,4.63,77.0,61.19599999999997,61.19599999999997,61.19599999999997,North
Kununurra,AU,40.0,-15.7667,128.7333,3.6,61.0,82.382,82.382,82.382,South
Khatanga,RU,68.0,71.9667,102.5,1.47,99.0,-51.303999999999974,-51.303999999999974,-51.303999999999974,North
Aklavik,CA,100.0,68.2191,-135.0107,6.49,89.0,-18.831999999999994,-18.831999999999994,-18.831999999999994,North
Carnarvon,AU,1.0,-24.8667,113.6333,5.66,83.0,73.47200000000004,73.47200000000004,73.47200000000004,South
Dikson,RU,23.0,73.5069,80.5464,4.88,94.0,-38.47000000000003,-38.47000000000003,-38.47000000000003,North
Lebu,CL,86.0,-37.6167,-73.65,3.29,94.0,61.358000000000004,61.358000000000004,61.358000000000004,South
Maun,BW,33.0,-19.9833,23.4167,3.76,59.0,75.19999999999999,75.19999999999999,75.19999999999999,South
Hobart,AU,75.0,-42.8794,147.3294,0.45,81.0,56.62399999999997,54.22999999999996,59.018000000000086,South
Bluff,NZ,100.0,-46.6,168.3333,0.82,77.0,66.79400000000004,66.79400000000004,66.79400000000004,South
Freeport,US,75.0,40.6576,-73.5832,0.89,77.0,50.702000000000055,43.160000000000025,55.976000000000056,North
Rikitea,PF,21.0,-23.1203,-134.9692,3.93,72.0,77.36000000000007,77.36000000000007,77.36000000000007,South
Inhambane,MZ,98.0,-23.865,35.3833,2.46,79.0,77.84600000000006,77.84600000000006,77.84600000000006,South
Punta Arenas,CL,40.0,-53.15,-70.9167,14.92,49.0,48.307999999999936,48.110000000000014,48.307999999999936,South
Avarua,CK,20.0,-21.2078,-159.775,6.17,78.0,82.45400000000001,82.45400000000001,82.45400000000001,South
Butaritari,KI,100.0,3.0707,172.7902,4.98,68.0,80.63600000000002,80.63600000000002,80.63600000000002,North
Mataura,NZ,100.0,-46.1927,168.8643,0.67,58.0,66.46999999999997,66.46999999999997,66.46999999999997,South
Raudeberg,NO,100.0,61.9875,5.1352,4.47,90.0,44.815999999999974,41.95400000000001,45.26599999999996,North
Brighton,GB,8.0,50.8284,-0.1395,5.81,90.0,50.34199999999993,46.903999999999996,51.74599999999998,North
Tual,ID,100.0,-5.6667,132.75,6.36,77.0,81.71599999999995,81.71599999999995,81.71599999999995,South
Zhigansk,RU,61.0,66.7697,123.3711,2.67,98.0,-49.25200000000001,-49.25200000000001,-49.25200000000001,North
Hilo,US,1.0,19.7297,-155.09,5.14,75.0,79.43,75.39799999999997,80.79799999999994,North
Coyutla,MX,98.0,20.25,-97.65,2.73,84.0,66.11000000000007,66.11000000000007,66.11000000000007,North
Tamiahua,MX,100.0,21.2667,-97.45,12.61,57.0,66.344,66.344,66.344,North
Ponta Delgada,PT,75.0,37.7333,-25.6667,6.69,94.0,65.12000000000006,65.12000000000006,67.49600000000004,North
Saldanha,ZA,100.0,-33.0117,17.9442,9.51,79.0,63.03199999999998,63.03199999999998,63.03199999999998,South
Lompoc,US,1.0,34.6391,-120.4579,3.09,35.0,61.73600000000005,58.928000000000054,63.787999999999954,North
Tasiilaq,GL,100.0,65.6145,-37.6368,3.11,58.0,8.762,8.762,8.762,North
Torbay,CA,100.0,47.6666,-52.7314,2.68,95.0,36.733999999999924,35.88799999999998,39.27199999999999,North
Busselton,AU,62.0,-33.65,115.3333,5.22,89.0,57.037999999999954,56.084,57.037999999999954,South
Buala,SB,61.0,-8.145,159.5921,2.87,83.0,81.49999999999994,81.49999999999994,81.49999999999994,South
Albany,US,100.0,42.6001,-73.9662,4.42,93.0,30.128000000000043,25.14199999999994,36.08600000000001,North
Qaanaaq,GL,98.0,77.484,-69.3632,3.69,71.0,-2.3980000000000246,-2.3980000000000246,-2.3980000000000246,North
Norman Wells,CA,75.0,65.282,-126.8329,5.66,62.0,-27.364000000000033,-27.364000000000033,-27.364000000000033,North
Amarillo,US,1.0,35.222,-101.8313,2.68,25.0,42.99799999999999,39.02000000000004,46.813999999999965,North
Upernavik,GL,96.0,72.7868,-56.1549,2.98,77.0,2.1200000000000045,2.1200000000000045,2.1200000000000045,North
Severo-Kuril'sk,RU,87.0,50.6789,156.125,4.86,69.0,25.286,25.286,25.286,North
Longyearbyen,SJ,75.0,78.2186,15.6401,10.8,67.0,12.038000000000011,12.038000000000011,12.038000000000011,North
Castro,BR,80.0,-24.7911,-50.0119,2.44,69.0,74.38999999999993,74.38999999999993,74.38999999999993,South
Smithers,CA,97.0,54.7804,-127.1743,1.71,87.0,22.910000000000025,22.910000000000025,22.910000000000025,North
Bobcaygeon,CA,100.0,44.5462,-78.542,3.87,55.0,16.573999999999955,14.629999999999995,18.878000000000043,North
French Harbor,HN,75.0,16.35,-86.4333,0.45,86.0,82.00399999999996,82.00399999999996,82.39999999999992,North
Yellowknife,CA,100.0,62.456,-114.3525,3.83,92.0,-19.444000000000017,-19.444000000000017,-19.444000000000017,North
Saint George,US,1.0,37.1041,-113.5841,0.45,31.0,40.063999999999965,37.79599999999999,48.66800000000006,North
Puerto Ayora,EC,82.0,-0.7393,-90.3518,5.57,79.0,82.36399999999998,82.36399999999998,82.36399999999998,South
Thinadhoo,MV,78.0,0.5333,72.9333,4.37,80.0,80.618,80.618,80.618,North
Calabar,NG,90.0,4.9517,8.322,0.82,75.0,79.16000000000003,79.16000000000003,79.16000000000003,North
San Fernando del Valle de Catamarca,AR,3.0,-28.4696,-65.7852,2.68,42.0,96.78199999999998,93.57800000000003,96.78199999999998,South
Vaini,TO,75.0,-21.2,-175.2,5.66,94.0,78.96200000000005,78.96200000000005,78.96200000000005,South
Wagar,SD,14.0,16.1525,36.2032,4.34,20.0,68.19800000000004,68.19800000000004,68.19800000000004,North
Skuteč,CZ,51.0,49.8435,15.9966,6.71,100.0,48.110000000000014,42.00799999999998,50.27000000000004,North
Bethel,US,90.0,41.3712,-73.414,0.89,89.0,41.846000000000004,35.74400000000003,49.99999999999994,North
Santa Cruz de la Sierra,BO,40.0,-17.8,-63.1667,7.72,66.0,87.85399999999998,87.85399999999998,89.06,South
Mar del Plata,AR,90.0,-38.0023,-57.5575,5.36,78.0,72.87799999999999,72.87799999999999,72.87799999999999,South
Atar,MR,0.0,20.5169,-13.0499,5.19,19.0,67.35200000000003,67.35200000000003,67.35200000000003,North
Kautokeino,NO,100.0,69.0125,23.0412,9.65,94.0,11.299999999999955,11.299999999999955,11.299999999999955,North
Stabat,ID,100.0,3.761,98.4513,1.18,96.0,72.96800000000002,72.96800000000002,72.96800000000002,North
Hithadhoo,MV,96.0,-0.6,73.0833,3.82,75.0,81.98600000000005,81.98600000000005,81.98600000000005,South
Esim,GH,43.0,4.8699,-2.2405,2.88,80.0,79.88000000000005,79.88000000000005,79.88000000000005,North
Kapaa,US,20.0,22.0752,-159.319,0.89,77.0,74.91199999999998,73.11200000000002,77.18,North
Flinders,AU,23.0,-34.5833,150.8552,0.89,81.0,74.96599999999995,71.20400000000001,78.06200000000007,South
Esperance,AU,4.0,-33.8667,121.9,4.27,87.0,58.297999999999945,58.297999999999945,58.297999999999945,South
Barrow,US,1.0,71.2906,-156.7887,1.54,68.0,-25.581999999999994,-25.581999999999994,-25.581999999999994,North
Hvide Sande,DK,79.0,56.0045,8.1294,8.08,93.0,45.08600000000001,44.00599999999997,46.68799999999999,North
Nikolskoye,RU,100.0,59.7035,30.7861,3.31,87.0,16.93399999999997,14.791999999999973,18.39199999999994,North
Cape Town,ZA,0.0,-33.9258,18.4232,2.68,78.0,63.571999999999946,62.34800000000001,64.11200000000002,South
Lorengau,PG,96.0,-2.0226,147.2712,4.89,82.0,81.1760000000001,81.1760000000001,81.1760000000001,South
Oudtshoorn,ZA,100.0,-33.5907,22.2014,2.48,69.0,62.636000000000024,62.636000000000024,62.636000000000024,South
Hofn,IS,0.0,64.2539,-15.2082,9.14,57.0,24.494000000000028,24.494000000000028,24.494000000000028,North
La Santisima Trinidad,BO,20.0,-14.8333,-64.9,7.2,62.0,93.18199999999996,93.18199999999996,93.18199999999996,South
Bowen,AU,9.0,-20.0167,148.2333,0.84,77.0,83.04799999999994,83.04799999999994,83.04799999999994,South
East London,ZA,100.0,-33.0153,27.9116,2.15,75.0,66.72200000000004,66.72200000000004,66.72200000000004,South
Arlit,NE,88.0,18.7369,7.3853,4.57,27.0,63.391999999999996,63.391999999999996,63.391999999999996,North
São João da Barra,BR,100.0,-21.6403,-41.0511,2.64,89.0,80.69,80.69,80.69,South
Kruisfontein,ZA,65.0,-34.0033,24.7314,1.16,84.0,60.88999999999993,60.88999999999993,60.88999999999993,South
Iskateley,RU,100.0,67.6803,53.1512,6.5,97.0,-1.8039999999999736,-1.8039999999999736,-1.8039999999999736,North
Peterborough,GB,53.0,52.5736,-0.2478,9.11,85.0,48.18199999999996,46.56200000000001,49.98199999999997,North
Jaisinghnagar,IN,0.0,23.7,81.3833,2.23,57.0,51.83600000000001,51.83600000000001,51.83600000000001,North
Eyl,SO,2.0,7.9803,49.8164,4.09,77.0,75.52399999999994,75.52399999999994,75.52399999999994,North
Yarmouth,US,90.0,41.7057,-70.2286,3.13,95.0,46.86800000000005,42.96199999999999,52.105999999999995,North
Karratha,AU,3.0,-20.7377,116.8463,4.53,72.0,80.16800000000006,80.16800000000006,80.16800000000006,South
Mandalgovi,MN,0.0,45.7625,106.2708,4.35,46.0,7.771999999999991,7.771999999999991,7.771999999999991,North
Tuktoyaktuk,CA,75.0,69.4541,-133.0374,5.14,69.0,-22.0,-22.0,-22.0,North
Mayumba,GA,83.0,-3.432,10.6554,1.81,91.0,77.63000000000005,77.63000000000005,77.63000000000005,South
Touros,BR,90.0,-5.1989,-35.4608,6.21,73.0,85.09999999999997,85.09999999999997,85.09999999999997,South
Portland,US,90.0,45.5234,-122.6762,0.89,71.0,40.76599999999996,34.68199999999996,47.58800000000002,North
Cidreira,BR,100.0,-30.1811,-50.2056,1.26,96.0,73.70599999999996,73.70599999999996,73.70599999999996,South
Numan,NG,24.0,9.4667,12.0333,2.71,18.0,75.00200000000001,75.00200000000001,75.00200000000001,North
Atuona,PF,15.0,-9.8,-139.0333,9.33,74.0,78.2419999999999,78.2419999999999,78.2419999999999,South
Angoram,PG,100.0,-4.0625,144.0661,0.87,99.0,73.88600000000002,73.88600000000002,73.88600000000002,South
Saint-Pierre,RE,0.0,-21.3393,55.4781,2.57,70.0,75.07400000000001,73.04000000000002,75.29000000000002,South
Saint-Philippe,RE,43.0,-21.3585,55.7679,4.97,80.0,74.98399999999998,72.94999999999999,75.21800000000002,South
Hong Kong,HK,72.0,22.2855,114.1577,3.58,86.0,62.636000000000024,59.97200000000004,65.94800000000004,North
Clyde River,CA,100.0,70.4692,-68.5914,7.2,84.0,-3.7660000000000196,-3.7660000000000196,-3.7660000000000196,North
Santa Lucía,ES,0.0,27.9117,-15.5407,4.12,60.0,60.11599999999993,59.93599999999998,62.762,North
Cayenne,GF,75.0,4.9333,-52.3333,2.68,82.0,80.09600000000006,77.036,80.09600000000006,North
Taiyuan,CN,0.0,37.8694,112.5603,1.0,79.0,10.255999999999972,10.255999999999972,10.255999999999972,North
Porto Belo,BR,10.0,-27.1578,-48.5531,4.67,84.0,81.58999999999997,80.54599999999999,85.62200000000001,South
Kolosovka,RU,100.0,56.4678,73.611,4.53,89.0,16.53800000000001,16.53800000000001,16.53800000000001,North
Airai,TL,99.0,-8.9266,125.4092,0.51,93.0,60.83600000000007,60.83600000000007,60.83600000000007,South
Kyren,RU,76.0,51.6828,102.1408,1.06,84.0,0.1220000000000141,0.1220000000000141,0.1220000000000141,North
Eureka,US,100.0,40.8021,-124.1637,4.02,59.0,52.01599999999996,49.35200000000003,54.19400000000002,North
Bambous Virieux,MU,40.0,-20.3428,57.7575,3.09,83.0,73.65199999999999,73.65199999999999,74.2100000000001,South
Karaton,ID,91.0,-6.3424,106.1045,1.93,93.0,75.36200000000002,69.88999999999993,75.95599999999996,South
Marsh Harbour,BS,5.0,26.5412,-77.0636,5.73,71.0,77.44999999999999,77.44999999999999,77.44999999999999,North
Ponta do Sol,PT,9.0,32.6667,-17.1,2.2,15.0,72.12200000000001,68.63000000000005,72.12200000000001,North
Shache,CN,9.0,38.4167,77.2406,0.16,49.0,22.153999999999996,22.153999999999996,22.153999999999996,North
Kavaratti,IN,9.0,10.5669,72.642,2.09,73.0,81.03199999999998,81.03199999999998,81.03199999999998,North
Qaqortoq,GL,100.0,60.7167,-46.0333,3.31,89.0,23.50400000000002,23.50400000000002,23.50400000000002,North
Kandrian,PG,46.0,-6.2167,149.55,3.6,85.0,79.53799999999995,79.53799999999995,79.53799999999995,South
Haines Junction,CA,100.0,60.7522,-137.5108,4.12,53.0,-14.853999999999985,-14.853999999999985,-14.853999999999985,North
Aghavnadzor,AM,100.0,39.7822,45.2275,0.57,96.0,20.714,20.714,20.714,North
Knoxville,US,90.0,35.9606,-83.9207,2.06,88.0,54.698000000000036,49.136000000000024,57.66800000000006,North
La Rioja,ES,100.0,42.25,-2.5,0.98,80.0,33.583999999999946,33.583999999999946,50.036,North
Kiryat Gat,IL,45.0,31.61,34.7642,1.25,100.0,55.202000000000055,52.916,57.39799999999997,North
Souillac,MU,40.0,-20.5167,57.5167,3.09,83.0,73.77800000000008,73.77800000000008,74.35399999999998,South
Bredasdorp,ZA,100.0,-34.5322,20.0403,1.03,77.0,61.916,61.916,63.283999999999935,South
Pashiya,RU,100.0,58.4324,58.2562,2.76,97.0,25.75400000000002,25.75400000000002,25.75400000000002,North
Tuatapere,NZ,100.0,-46.1333,167.6833,0.42,65.0,66.81200000000007,66.81200000000007,66.81200000000007,South
George Town,MY,20.0,5.4112,100.3354,3.6,78.0,78.88999999999993,77.95400000000001,78.88999999999993,North
Camacha,PT,0.0,33.0833,-16.3333,2.06,82.0,62.023999999999944,62.023999999999944,65.156,North
Hermanus,ZA,100.0,-34.4187,19.2345,2.92,74.0,63.80599999999998,62.906000000000006,63.80599999999998,South
Guerrero Negro,MX,82.0,27.9769,-114.0611,1.61,40.0,62.67199999999997,62.67199999999997,62.67199999999997,North
Atambua,ID,100.0,-9.1061,124.8925,0.7,89.0,73.88600000000002,73.88600000000002,73.88600000000002,South
Jiangkou,CN,25.0,25.4872,119.1986,3.78,75.0,48.09199999999993,48.09199999999993,48.09199999999993,North
Swan River,CA,89.0,52.1058,-101.2676,2.57,71.0,-4.108000000000004,-4.108000000000004,-4.108000000000004,North
Vila Franca do Campo,PT,100.0,37.7167,-25.4333,8.86,96.0,67.19,64.81400000000002,67.19,North
Vardø,NO,75.0,70.3705,31.1107,4.12,54.0,24.781999999999982,13.74799999999999,24.781999999999982,North
Gunjur,GM,0.0,13.2019,-16.7339,2.06,50.0,75.27199999999999,75.27199999999999,75.27199999999999,North
Saint Paul Harbor,US,97.0,57.79,-152.4072,14.35,73.0,16.160000000000025,16.160000000000025,16.160000000000025,North
Jalu,LY,0.0,29.0331,21.5482,2.89,67.0,58.83800000000002,58.83800000000002,58.83800000000002,North
Oroville,US,1.0,39.5138,-121.5564,2.24,66.0,49.783999999999935,46.39999999999998,56.40799999999996,North
Chumikan,RU,20.0,54.7183,135.315,5.16,91.0,-21.783999999999992,-21.783999999999992,-21.783999999999992,North
Saint-Joseph,RE,22.0,-21.3667,55.6167,3.63,80.0,73.99400000000009,71.9600000000001,74.2100000000001,South
Alofi,NU,100.0,-19.0595,-169.9187,1.03,94.0,75.09199999999993,75.09199999999993,75.09199999999993,South
Lubao,PH,99.0,14.9167,120.55,5.46,78.0,76.83800000000002,75.14600000000002,77.07199999999995,North
Chui,UY,21.0,-33.6971,-53.4616,4.39,50.0,85.24400000000009,85.24400000000009,85.24400000000009,South
Termez,UZ,0.0,37.2242,67.2783,2.06,62.0,50.089999999999975,50.089999999999975,50.089999999999975,North
Thompson,CA,75.0,55.7435,-97.8558,0.0,76.0,-16.437999999999988,-16.437999999999988,-16.437999999999988,North
San-Pédro,CI,41.0,4.7485,-6.6363,2.71,82.0,79.844,79.844,79.844,North
New Norfolk,AU,100.0,-42.7826,147.0587,0.89,75.0,55.52600000000001,53.88799999999998,58.65799999999996,South
Kanniyākumāri,IN,54.0,8.0833,77.5667,10.83,79.0,77.57600000000008,77.57600000000008,77.57600000000008,North
Tacuarembó,UY,0.0,-31.7333,-55.9833,5.36,18.0,101.17399999999992,101.17399999999992,101.17399999999992,South
Oranjemund,NA,0.0,-28.55,16.4333,8.19,82.0,62.744000000000085,62.744000000000085,62.744000000000085,South
Sørland,NO,100.0,67.667,12.6934,14.65,78.0,33.872000000000014,33.872000000000014,33.872000000000014,North
Port Alfred,ZA,90.0,-33.5906,26.891,1.65,75.0,64.97600000000006,64.97600000000006,64.97600000000006,South
Leer,SS,4.0,8.3018,30.1418,2.42,25.0,76.42399999999992,76.42399999999992,76.42399999999992,North
Kaitangata,NZ,100.0,-46.2817,169.8464,2.02,64.0,69.9260000000001,69.9260000000001,69.9260000000001,South
Pevek,RU,100.0,69.7008,170.3133,9.66,81.0,23.629999999999995,23.629999999999995,23.629999999999995,North
Plácido de Castro,BR,66.0,-10.3353,-67.1856,2.08,60.0,87.40400000000005,87.40400000000005,87.40400000000005,South
Sept-Îles,CA,75.0,50.2001,-66.3821,2.24,70.0,6.062000000000012,5.4319999999999595,6.062000000000012,North
Geraldton,AU,1.0,-28.7667,114.6,4.12,88.0,64.81400000000002,64.81400000000002,64.81400000000002,South
Lākheri,IN,2.0,25.6667,76.1667,2.55,56.0,55.166,55.166,55.166,North
Port Hedland,AU,4.0,-20.3167,118.5667,3.6,83.0,78.85399999999998,78.85399999999998,78.85399999999998,South
Huilong,CN,3.0,31.8111,121.655,1.17,79.0,40.69400000000002,39.97399999999999,44.04199999999997,North
Tailai,CN,95.0,46.3833,123.4,2.37,82.0,0.26600000000001955,0.26600000000001955,0.26600000000001955,North
Cianjur,ID,95.0,-6.8224,107.1393,1.48,92.0,72.68,66.23600000000005,75.93800000000005,South
Pathanāmthitta,IN,10.0,9.2667,76.7833,1.19,84.0,72.58999999999997,72.58999999999997,72.58999999999997,North
Padang,ID,100.0,-0.9492,100.3543,1.71,83.0,75.70400000000001,75.70400000000001,75.70400000000001,South
Tottori-shi,JP,100.0,35.5,134.2333,3.03,91.0,39.63199999999995,39.63199999999995,39.63199999999995,North
Kasama,ZM,80.0,-10.2129,31.1808,1.35,80.0,65.084,65.084,65.084,South
Krasnosel'kup,RU,100.0,65.7,82.4667,5.21,97.0,-3.694000000000017,-3.694000000000017,-3.694000000000017,North
Lagoa,PT,100.0,39.05,-27.9833,13.49,87.0,55.994000000000085,55.994000000000085,55.994000000000085,North
Namatanai,PG,100.0,-3.6667,152.4333,3.26,81.0,81.05000000000001,81.05000000000001,81.05000000000001,South
Balkanabat,TM,54.0,39.5108,54.3671,2.42,56.0,49.20799999999997,49.20799999999997,49.20799999999997,North
East Stroudsburg,US,100.0,40.9995,-75.1813,4.82,88.0,42.94400000000002,33.45799999999997,55.741999999999905,North
Husavik,IS,100.0,66.0449,-17.3389,17.05,75.0,13.910000000000025,13.910000000000025,13.910000000000025,North
Hasaki,JP,2.0,35.7333,140.8333,6.02,54.0,28.795999999999992,25.088000000000022,28.795999999999992,North
San Quintín,MX,71.0,30.4833,-115.95,3.59,38.0,60.31400000000002,60.31400000000002,60.31400000000002,North
Quelimane,MZ,20.0,-17.8786,36.8883,4.12,89.0,82.34600000000006,82.34600000000006,82.34600000000006,South
Saskylakh,RU,96.0,71.9167,114.0833,0.88,100.0,-44.464000000000055,-44.464000000000055,-44.464000000000055,North
Sioux Lookout,CA,20.0,50.1001,-91.917,2.57,71.0,-7.52800000000002,-9.021999999999991,-7.52800000000002,North
Darnah,LY,0.0,32.767,22.6367,2.01,78.0,59.12600000000003,59.12600000000003,59.12600000000003,North
Muros,ES,98.0,42.7762,-9.0603,3.41,86.0,58.226000000000056,55.688000000000045,59.089999999999975,North
Bétaré Oya,CM,90.0,5.6,14.0833,2.93,27.0,75.25399999999996,75.25399999999996,75.25399999999996,North
Wajir,KE,66.0,1.7471,40.0573,3.79,37.0,83.30000000000001,83.30000000000001,83.30000000000001,North
Fairbanks,US,1.0,64.8378,-147.7164,2.06,63.0,-31.48599999999999,-43.25799999999998,-22.0,North
Lockhart,US,40.0,28.6194,-81.4426,0.89,64.0,81.89600000000002,79.916,84.12799999999999,North
Linhares,BR,100.0,-19.3911,-40.0722,2.36,89.0,75.59600000000006,75.59600000000006,75.59600000000006,South
Kenai,US,1.0,60.5544,-151.2583,12.35,48.0,10.454000000000008,10.454000000000008,10.489999999999952,North
Pangnirtung,CA,90.0,66.1451,-65.7125,3.6,68.0,19.399999999999977,19.399999999999977,19.399999999999977,North
Havøysund,NO,100.0,70.9963,24.6622,12.51,73.0,21.43399999999997,18.48199999999997,21.43399999999997,North
Kahului,US,20.0,20.8947,-156.47,2.06,76.0,79.88000000000005,76.6760000000001,83.46200000000005,North
Lukovetskiy,RU,92.0,64.2956,41.9211,1.5,99.0,9.986000000000047,9.986000000000047,10.381999999999948,North
Kharp,RU,100.0,66.8014,65.8081,1.91,99.0,-10.875999999999976,-10.875999999999976,-10.875999999999976,North
Kabare,CD,90.0,-2.4683,28.8242,0.61,92.0,61.24999999999994,61.24999999999994,61.24999999999994,South
Mossamedes,AO,70.0,-15.1961,12.1522,1.3,82.0,69.87200000000001,69.87200000000001,69.87200000000001,South
Antofagasta,CL,2.0,-23.65,-70.4,3.95,71.0,70.88000000000005,70.88000000000005,70.88000000000005,South
Baykit,RU,100.0,61.67,96.37,0.85,99.0,-3.4420000000000073,-3.4420000000000073,-3.4420000000000073,North
Jiaocheng,CN,0.0,24.6774,116.1389,1.11,88.0,51.20599999999996,51.20599999999996,51.20599999999996,North
Fortuna,US,1.0,40.5982,-124.1573,2.68,61.0,51.170000000000016,45.428,53.92399999999992,North
Leningradskiy,RU,100.0,69.3833,178.4167,3.75,89.0,12.433999999999969,12.433999999999969,12.433999999999969,North
Kaseda-shirakame,JP,14.0,31.4167,130.3167,4.14,72.0,35.85200000000003,35.85200000000003,36.62600000000003,North
Srednekolymsk,RU,100.0,67.45,153.6833,1.2,96.0,-22.593999999999994,-22.593999999999994,-22.593999999999994,North
Eydhafushi,MV,4.0,5.1033,73.0708,8.4,78.0,81.93199999999996,81.93199999999996,81.93199999999996,North
Valparaíso,CL,0.0,-33.0393,-71.6273,4.12,43.0,76.82,67.118,80.834,South
Turaif,SA,75.0,31.6725,38.6637,2.06,93.0,44.85200000000003,44.85200000000003,44.85200000000003,North
Port Elizabeth,ZA,48.0,-33.918,25.5701,1.08,81.0,63.103999999999985,63.103999999999985,63.103999999999985,South
Nemuro,JP,40.0,43.3236,145.575,13.14,62.0,22.279999999999973,22.279999999999973,22.279999999999973,North
Ishigaki,JP,75.0,24.3448,124.1572,5.66,77.0,68.12600000000003,68.12600000000003,68.12600000000003,North
Malpe,IN,5.0,13.35,74.7167,2.94,70.0,76.29799999999994,76.29799999999994,76.29799999999994,North
Todos Santos,MX,2.0,23.45,-110.2167,1.74,54.0,74.13799999999998,72.75200000000001,78.11599999999993,North
Ampanihy,MG,33.0,-24.7,44.75,5.27,88.0,70.358,70.358,70.358,South
Amapá,BR,38.0,1.0,-52.0,1.65,98.0,75.57800000000003,75.57800000000003,75.57800000000003,North
Nishihara,JP,0.0,26.1842,127.7558,2.57,72.0,60.079999999999984,51.45799999999997,60.079999999999984,North
Didsbury,GB,57.0,53.417,-2.2315,2.68,82.0,48.523999999999944,46.48999999999995,50.68399999999997,North
Vestmannaeyjar,IS,0.0,63.4427,-20.2734,12.43,65.0,25.05200000000002,25.05200000000002,25.05200000000002,North
Palu,ID,100.0,-0.8917,119.8707,1.08,95.0,75.416,75.416,75.416,South
Faya,SA,44.0,18.3851,42.4509,3.01,86.0,50.52199999999999,50.52199999999999,51.90799999999996,North
Ilulissat,GL,93.0,69.2167,-51.1,1.54,44.0,14.018000000000029,14.018000000000029,14.018000000000029,North
Kotel'nich,RU,92.0,58.3089,48.348,2.92,97.0,5.683999999999969,5.683999999999969,5.683999999999969,North
Richards Bay,ZA,100.0,-28.783,32.0377,2.35,93.0,70.88000000000005,70.88000000000005,70.88000000000005,South
São Filipe,CV,14.0,14.8961,-24.4956,4.66,58.0,77.594,77.594,77.594,North
Hirara,JP,95.0,24.8,125.2833,8.4,76.0,67.42399999999992,67.42399999999992,67.42399999999992,North
Lakatoro,VU,96.0,-16.0999,167.4164,2.76,77.0,83.67800000000005,83.67800000000005,83.67800000000005,South
Mazyr,BY,100.0,52.0495,29.2456,7.1,92.0,30.03800000000001,30.03800000000001,30.03800000000001,North
Hambantota,LK,16.0,6.1241,81.1185,6.99,83.0,76.964,76.964,76.964,North
Tessalit,ML,0.0,20.1986,1.0114,5.46,19.0,63.914000000000044,63.914000000000044,63.914000000000044,North
San Policarpo,PH,100.0,12.1791,125.5072,8.17,78.0,78.56599999999997,78.56599999999997,78.56599999999997,North
Dubai,AE,0.0,25.2582,55.3047,2.57,68.0,72.84199999999993,71.85200000000003,77.21599999999995,North
Provideniya,RU,99.0,64.3833,-173.3,1.46,97.0,12.055999999999983,12.055999999999983,12.055999999999983,North
Sibolga,ID,100.0,1.7427,98.7792,0.87,90.0,74.49799999999999,74.49799999999999,74.49799999999999,North
Sechura,PE,39.0,-5.5569,-80.8222,6.32,63.0,76.51399999999995,76.51399999999995,76.51399999999995,South
College,US,20.0,64.8569,-147.8028,4.12,63.0,-31.954000000000008,-43.94200000000001,-22.01800000000003,North
Naze,JP,90.0,28.3667,129.4833,5.03,75.0,57.39799999999997,57.39799999999997,57.39799999999997,North
Lima,PE,20.0,-12.0432,-77.0282,5.66,78.0,70.05200000000008,70.05200000000008,73.13000000000005,South
Pemangkat,ID,100.0,1.1667,108.9667,2.58,87.0,76.65799999999996,76.65799999999996,76.65799999999996,North
Hilliard,US,90.0,40.0334,-83.1582,1.79,91.0,28.687999999999988,25.44799999999998,32.396000000000015,North
Santa Isabel,BR,88.0,-23.3156,-46.2214,1.28,87.0,74.67800000000005,70.55599999999998,77.64799999999997,South
Lázaro Cárdenas,MX,0.0,17.9583,-102.2,3.44,62.0,82.02199999999999,82.02199999999999,82.02199999999999,North
Broadstairs,GB,39.0,51.3591,1.4394,2.24,77.0,49.80200000000002,48.073999999999955,51.42199999999997,North
Necochea,AR,100.0,-38.5473,-58.7368,8.89,53.0,72.03199999999998,72.03199999999998,72.03199999999998,South
Creel,MX,10.0,27.75,-107.6333,3.74,23.0,54.68000000000001,54.68000000000001,54.68000000000001,North
Senneterre,CA,93.0,48.3835,-77.2328,1.77,93.0,-3.783999999999992,-3.783999999999992,-3.783999999999992,North
Isangel,VU,75.0,-19.55,169.2667,2.06,89.0,82.50799999999998,82.50799999999998,82.50799999999998,South
Aleppo Governorate,SY,62.0,36.25,37.5,2.65,68.0,45.87800000000004,45.87800000000004,45.87800000000004,North
Marsabit,KE,17.0,2.3284,37.9899,4.08,53.0,67.15400000000005,67.15400000000005,67.15400000000005,North
Mahébourg,MU,40.0,-20.4081,57.7,3.09,83.0,73.68800000000005,73.68800000000005,74.24600000000004,South
Lata,PT,88.0,40.1629,-8.3327,0.91,92.0,52.843999999999994,51.926000000000045,54.914000000000044,North
Escárcega,MX,0.0,18.6089,-90.7454,0.91,34.0,95.95400000000001,95.95400000000001,95.95400000000001,North
Lakes Entrance,AU,53.0,-37.8811,147.981,2.78,81.0,62.16800000000006,62.16800000000006,63.571999999999946,South
Dudinka,RU,31.0,69.4058,86.1778,2.37,99.0,-42.57400000000001,-42.57400000000001,-42.57400000000001,North
Los Llanos de Aridane,ES,0.0,28.6585,-17.9182,3.13,30.0,65.12000000000006,62.34800000000001,65.12000000000006,North
Ahipara,NZ,100.0,-35.1667,173.1667,3.98,61.0,70.48399999999998,70.48399999999998,70.48399999999998,South
Sainte-Thècle,CA,100.0,46.8168,-72.4991,5.48,70.0,10.454000000000008,10.129999999999995,12.18199999999996,North
Fukuechō,JP,93.0,32.6881,128.8419,5.83,53.0,49.69400000000002,49.69400000000002,49.69400000000002,North
Zabaykal'sk,RU,82.0,49.6333,117.3167,5.07,96.0,-4.756000000000029,-4.756000000000029,-4.756000000000029,North
Vangaindrano,MG,78.0,-23.35,47.6,4.06,85.0,75.88399999999996,75.88399999999996,75.88399999999996,South
Seoul,KR,84.0,37.5683,126.9778,0.72,40.0,14.180000000000007,10.813999999999965,18.841999999999928,North
Mongaguá,BR,59.0,-24.0931,-46.6208,2.63,78.0,81.69800000000004,77.82800000000003,84.92000000000002,South
Hobyo,SO,13.0,5.3505,48.5268,5.43,77.0,78.18800000000005,78.18800000000005,78.18800000000005,North
Natal,BR,40.0,-5.795,-35.2094,5.66,78.0,82.61599999999993,82.61599999999993,84.84800000000001,South
Olafsvik,IS,0.0,64.8945,-23.7142,6.15,55.0,26.636000000000024,26.636000000000024,26.636000000000024,North
Magistral'nyy,RU,100.0,56.1725,107.4458,2.48,97.0,-5.925999999999988,-5.925999999999988,-5.925999999999988,North
Hamilton,US,90.0,39.1834,-84.5333,2.24,85.0,30.110000000000014,27.78800000000001,32.57600000000002,North
Aksarka,RU,100.0,66.5606,67.7975,5.08,99.0,-21.352000000000032,-21.352000000000032,-21.352000000000032,North
Kutum,SD,55.0,14.2,24.6667,6.38,39.0,55.32800000000003,55.32800000000003,55.32800000000003,North
Villa Bruzual,VE,82.0,9.3328,-69.1208,1.56,29.0,92.93,92.93,92.93,North
Suba,PH,100.0,10.8438,121.0102,12.96,83.0,78.78199999999998,78.78199999999998,78.78199999999998,North
Yulara,AU,11.0,-25.2406,130.9889,3.6,20.0,82.238,82.238,82.238,South
Nanchang,CN,6.0,28.6833,115.8833,0.67,45.0,46.18399999999997,46.18399999999997,46.18399999999997,North
Agía Galíni,GR,14.0,35.1,24.6833,3.99,77.0,56.44400000000002,52.75399999999996,58.58600000000007,North
Businga,CD,74.0,3.3333,20.8833,0.82,48.0,74.93,74.93,74.93,North
Caraballeda,VE,40.0,10.6112,-66.8522,2.06,59.0,85.37000000000006,84.27199999999999,85.37000000000006,North
Sinegor'ye,RU,100.0,62.0788,150.477,1.27,99.0,-24.718000000000018,-24.718000000000018,-24.718000000000018,North
Markova,UA,100.0,48.6758,24.4138,4.43,82.0,43.646000000000015,43.646000000000015,43.646000000000015,North
Sorokyne,UA,81.0,48.2923,39.7373,3.53,94.0,14.899999999999977,14.899999999999977,14.899999999999977,North
Sabzawār,IR,100.0,36.2126,57.6819,0.75,70.0,45.69799999999998,45.69799999999998,45.69799999999998,North
Ural,RU,100.0,55.9078,94.7464,4.49,86.0,17.960000000000036,17.960000000000036,17.960000000000036,North
Mucurici,BR,100.0,-18.0933,-40.5158,3.06,87.0,75.56,75.56,75.56,South
Sur,OM,41.0,22.5667,59.5289,7.26,72.0,71.88799999999998,71.88799999999998,71.88799999999998,North
Saint Anthony,US,1.0,45.0205,-93.218,0.89,60.0,4.118000000000052,0.103999999999985,6.152000000000044,North
Diffa,NE,66.0,13.3154,12.6113,6.39,40.0,67.262,67.262,67.262,North
Pouébo,NC,30.0,-20.4,164.5667,1.13,79.0,81.464,81.464,81.464,South
Sandviken,SE,96.0,60.6167,16.7667,1.77,94.0,33.72800000000001,31.946000000000026,35.69,North
Faanui,PF,99.0,-16.4833,-151.75,1.72,77.0,78.17000000000002,78.17000000000002,78.17000000000002,South
Henties Bay,NA,83.0,-22.116,14.2845,1.41,84.0,61.86200000000002,61.86200000000002,61.86200000000002,South
Vila Velha,BR,0.0,-20.3297,-40.2925,4.92,82.0,78.94400000000002,78.94400000000002,80.54599999999999,South
Bathsheba,BB,20.0,13.2167,-59.5167,10.8,61.0,81.21200000000005,81.21200000000005,81.21200000000005,North
Paamiut,GL,100.0,61.994,-49.6678,5.99,77.0,25.196000000000026,25.196000000000026,25.196000000000026,North
Araouane,ML,0.0,18.9048,-3.5265,4.82,22.0,68.63000000000005,68.63000000000005,68.63000000000005,North
Cabedelo,BR,62.0,-6.9811,-34.8339,5.33,74.0,83.06599999999997,83.06599999999997,83.06599999999997,South
Östersund,SE,90.0,63.1792,14.6357,2.57,100.0,21.649999999999977,21.649999999999977,25.610000000000014,North
Hualmay,PE,22.0,-11.0964,-77.6139,4.52,75.0,73.21999999999997,73.21999999999997,73.21999999999997,South
Bermeo,ES,96.0,43.4209,-2.7215,3.71,81.0,53.58199999999994,50.30599999999998,56.47999999999996,North
Arrifes,PT,75.0,37.7667,-25.7,6.17,94.0,62.85200000000003,62.85200000000003,65.22800000000001,North
Włoszczowa,PL,87.0,50.8526,19.9659,9.43,72.0,48.829999999999984,44.402000000000044,50.18000000000001,North
Klaksvík,FO,100.0,62.2266,-6.589,13.24,63.0,31.118000000000052,31.118000000000052,31.118000000000052,North
Nandurbar,IN,3.0,21.3667,74.25,2.64,59.0,70.12399999999997,70.12399999999997,70.12399999999997,North
Kandiari,PK,92.0,26.9156,68.5216,3.16,24.0,63.13999999999993,63.13999999999993,63.13999999999993,North
Constitución,CL,11.0,-35.3333,-72.4167,4.13,76.0,66.73999999999995,66.73999999999995,66.73999999999995,South
Talara,PE,40.0,-4.5772,-81.2719,5.14,54.0,81.35599999999994,81.35599999999994,81.35599999999994,South
Ashland,US,100.0,40.8167,-82.2665,5.35,96.0,26.798000000000002,24.476000000000056,29.660000000000025,North
La Massana,AD,99.0,42.5667,1.4833,0.47,62.0,26.762,23.846000000000004,39.73999999999995,North
Corner Brook,CA,100.0,48.9667,-57.9484,1.11,100.0,37.597999999999956,37.56200000000001,39.32600000000002,North
Almaznyy,RU,89.0,48.0448,40.045,3.52,94.0,23.144000000000005,23.144000000000005,23.144000000000005,North
Booué,GA,81.0,-0.0921,11.9385,1.27,91.0,75.32600000000008,75.32600000000008,75.32600000000008,South
Saint-Augustin,CA,100.0,51.226,-58.6502,8.24,77.0,18.878000000000043,18.878000000000043,18.878000000000043,North
Sal Rei,CV,5.0,16.1833,-22.9167,7.62,77.0,73.95799999999991,73.95799999999991,73.95799999999991,North
Porto Santo,PT,0.0,33.072,-16.3415,2.06,82.0,64.77800000000008,64.77800000000008,67.91000000000003,North
Tarancón,ES,45.0,40.0085,-3.0073,0.56,60.0,45.15799999999996,38.49799999999999,49.49599999999998,North
Mount Isa,AU,100.0,-20.7333,139.5,4.12,70.0,83.96599999999995,83.96599999999995,83.96599999999995,South
Olavarría,AR,100.0,-36.8927,-60.3225,9.65,34.0,91.02199999999999,91.02199999999999,91.02199999999999,South
Mehamn,NO,0.0,71.0357,27.8492,6.17,79.0,12.470000000000027,12.146000000000015,21.379999999999995,North
Merauke,ID,98.0,-8.4667,140.3333,2.84,90.0,77.36000000000007,77.36000000000007,77.36000000000007,South
Caucayá,CO,98.0,-0.1934,-74.7819,2.24,30.0,93.66800000000006,93.66800000000006,93.66800000000006,South
Nesbyen,NO,100.0,60.5681,9.1027,1.59,95.0,29.73199999999997,29.73199999999997,29.73199999999997,North
Nara,JP,10.0,34.6851,135.8049,0.9,62.0,38.73199999999997,35.906000000000006,39.95599999999996,North
Asheville,US,1.0,35.6009,-82.554,0.45,91.0,57.68599999999998,55.18399999999991,61.10599999999994,North
Sola,VU,90.0,-13.8833,167.55,0.0,84.0,83.06599999999997,83.06599999999997,83.06599999999997,South
Provincie Utrecht,NL,100.0,52.0,5.25,3.13,90.0,51.349999999999966,49.946000000000026,53.29400000000004,North
Broken Hill,AU,0.0,-31.95,141.4333,8.01,46.0,70.62799999999999,70.62799999999999,70.62799999999999,South
Sydney,AU,20.0,-33.8679,151.2073,0.45,74.0,73.79599999999999,69.2419999999999,76.60399999999998,South
Kaya,BF,99.0,13.0917,-1.0844,3.5,19.0,73.61599999999993,73.61599999999993,73.61599999999993,North
Cherskiy,RU,98.0,68.75,161.3,2.74,98.0,-1.8940000000000055,-1.8940000000000055,-1.8940000000000055,North
Bengkulu,ID,76.0,-3.8004,102.2655,1.63,91.0,73.57999999999998,73.57999999999998,73.57999999999998,South
Nyurba,RU,99.0,63.2842,118.3319,1.63,99.0,-28.192000000000007,-28.192000000000007,-28.192000000000007,North
Katsuura,JP,0.0,35.1333,140.3,4.19,62.0,40.44199999999995,40.099999999999966,41.144000000000005,North
Mayya,RU,86.0,61.7333,130.2811,1.71,100.0,-43.69,-44.28399999999999,-43.69,North
Kudahuvadhoo,MV,15.0,2.6708,72.8944,5.39,79.0,81.536,81.536,81.536,North
Mocuba,MZ,99.0,-16.8392,36.9856,1.11,96.0,74.55200000000008,74.55200000000008,74.55200000000008,South
Arraial do Cabo,BR,75.0,-22.9661,-42.0278,5.14,78.0,78.656,78.656,78.76399999999995,South
Goundi,TD,75.0,9.3627,17.366,3.36,19.0,75.59600000000006,75.59600000000006,75.59600000000006,North
Naviraí,BR,79.0,-23.065,-54.1906,2.5,32.0,93.45200000000006,93.45200000000006,93.45200000000006,South
Tezu,IN,11.0,27.9167,96.1667,1.85,43.0,57.38000000000005,57.38000000000005,57.38000000000005,North
Zunheboto,IN,62.0,25.9667,94.5167,1.57,88.0,44.25799999999998,44.25799999999998,44.25799999999998,North
Varėna,LT,100.0,54.2167,24.5667,3.6,99.0,32.64799999999997,32.48600000000005,32.64799999999997,North
Bologoye,RU,97.0,57.8799,34.1068,1.74,97.0,3.362000000000023,3.362000000000023,3.362000000000023,North
Arrondissement de Marseille,FR,34.0,43.3333,5.5,3.58,91.0,45.39199999999994,43.646000000000015,46.50799999999998,North
Dunedin,NZ,100.0,-45.8742,170.5036,1.68,58.0,67.35200000000003,67.35200000000003,67.35200000000003,South
Asău,RO,90.0,46.4333,26.4,3.32,93.0,32.91800000000006,32.91800000000006,33.27800000000002,North
Bontang,ID,100.0,0.1333,117.5,3.26,89.0,77.07199999999995,77.07199999999995,77.07199999999995,North
Edéia,BR,13.0,-17.3383,-49.9314,3.01,82.0,76.02800000000008,76.02800000000008,76.02800000000008,South
Praia,CV,0.0,14.9215,-23.5087,6.17,69.0,75.73999999999995,75.73999999999995,75.73999999999995,North
Kosh-Agach,RU,57.0,50.0,88.6667,1.44,92.0,-14.02600000000001,-14.02600000000001,-14.02600000000001,North
Hurricane,US,0.0,37.1753,-113.2899,1.27,28.0,38.426000000000045,33.170000000000016,43.69999999999993,North
Kumul,CN,6.0,42.8,93.45,1.4,55.0,19.489999999999952,19.489999999999952,19.489999999999952,North
San Ramon,US,1.0,37.7799,-121.978,1.79,63.0,50.30599999999998,44.27600000000007,59.14400000000006,North
Immokalee,US,0.0,26.4187,-81.4173,5.31,64.0,81.24799999999999,77.91800000000006,82.94,North
Caravelas,BR,96.0,-17.7125,-39.2481,2.88,81.0,77.79199999999997,77.79199999999997,77.79199999999997,South
Bagdogra,IN,66.0,26.7,88.3167,1.72,59.0,58.928000000000054,58.928000000000054,58.928000000000054,North
Shubarkuduk,KZ,100.0,49.1447,56.4872,6.07,95.0,29.281999999999982,29.281999999999982,29.281999999999982,North
Cabo San Lucas,MX,1.0,22.8909,-109.9124,2.68,67.0,76.92800000000005,74.13799999999998,79.05200000000008,North
Longyan,CN,86.0,25.1072,117.0225,0.28,92.0,54.787999999999954,54.787999999999954,54.787999999999954,North
Coquimbo,CL,0.0,-29.9533,-71.3436,6.69,72.0,67.72999999999996,67.72999999999996,67.72999999999996,South
Corinth,GR,1.0,37.9407,22.9573,0.68,77.0,48.47000000000003,44.402000000000044,55.688000000000045,North
Lamu,KE,20.0,-2.2717,40.902,5.76,79.0,80.81599999999997,80.81599999999997,80.81599999999997,South
Margate,GB,37.0,51.3813,1.3862,2.24,81.0,49.910000000000025,48.18199999999996,51.512,North
Abu Dhabi,AE,6.0,24.4667,54.3667,0.89,61.0,75.95599999999996,74.96599999999995,77.108,North
Benito Juarez,MX,20.0,19.385,-99.165,4.02,22.0,74.83999999999997,72.98600000000005,75.02000000000004,North
Ixtapa,MX,1.0,20.7,-105.2,5.14,65.0,78.02600000000001,78.02600000000001,78.02600000000001,North
Port Lincoln,AU,56.0,-34.7333,135.8667,4.82,67.0,61.01600000000002,61.01600000000002,61.01600000000002,South
Tilichiki,RU,100.0,60.4667,166.1,15.95,97.0,30.937999999999988,30.937999999999988,30.937999999999988,North
Mareeba,AU,96.0,-17.0,145.4333,1.37,96.0,73.43599999999998,70.52000000000004,73.43599999999998,South
Te Anau,NZ,100.0,-45.4167,167.7167,0.8,68.0,63.31999999999999,63.31999999999999,63.31999999999999,South
Rupert,US,1.0,42.6191,-113.6772,7.72,63.0,19.273999999999944,15.241999999999962,19.346000000000004,North
Hagersville,CA,97.0,42.9668,-80.0497,3.69,77.0,22.964,18.71599999999995,24.565999999999974,North
Kāmākhyānagar,IN,1.0,20.9333,85.55,0.59,55.0,59.64799999999997,59.64799999999997,59.64799999999997,North
Hervey Bay,AU,22.0,-25.2986,152.8535,2.68,68.0,76.01000000000005,75.30799999999994,76.01000000000005,South
Dahra,DZ,7.0,36.2546,0.8519,0.52,56.0,49.38799999999998,49.38799999999998,49.38799999999998,North
Grand-Couronne,FR,90.0,49.3556,1.0065,8.75,76.0,53.14999999999992,51.20599999999996,54.787999999999954,North
Lagunas,PE,98.0,-5.2269,-75.6753,0.45,79.0,79.39400000000006,79.39400000000006,79.39400000000006,South
Lere,NG,73.0,10.387,8.5726,4.24,25.0,69.54799999999994,69.54799999999994,69.54799999999994,North
Nouadhibou,MR,0.0,20.931,-17.0347,7.2,29.0,75.18199999999996,75.18199999999996,75.18199999999996,North
Santiago de Cao,PE,8.0,-7.9589,-79.2392,5.66,78.0,69.9260000000001,69.9260000000001,69.9260000000001,South
Ostrovnoy,RU,100.0,68.0531,39.5131,8.19,86.0,16.879999999999995,16.879999999999995,16.879999999999995,North
Keti Bandar,PK,19.0,24.1447,67.4497,4.97,29.0,68.46800000000002,68.46800000000002,68.46800000000002,North
Jacareacanga,BR,100.0,-6.2222,-57.7528,0.89,80.0,81.71599999999995,81.71599999999995,81.71599999999995,South
Yerbogachën,RU,100.0,61.2767,108.0108,1.63,98.0,-16.726,-16.726,-16.726,North
Novyy Urgal,RU,100.0,51.0736,132.5642,0.6,98.0,-15.55600000000004,-15.55600000000004,-15.55600000000004,North
Ubari,LY,0.0,26.5921,12.7805,1.63,57.0,52.322,52.322,52.322,North
Rexburg,US,40.0,43.826,-111.7897,1.54,57.0,14.468000000000018,9.913999999999987,20.46199999999999,North
Saint-Cyr-sur-Loire,FR,90.0,47.4,0.6667,5.14,84.0,54.80599999999998,53.04199999999997,55.65199999999999,North
Kurbnesh,AL,8.0,41.7797,20.0836,1.58,78.0,32.629999999999995,32.629999999999995,32.629999999999995,North
Petropavlovsk-Kamchatskiy,RU,75.0,53.0452,158.6483,3.0,85.0,9.194000000000017,8.779999999999973,9.194000000000017,North
Chokurdakh,RU,98.0,70.6333,147.9167,3.32,98.0,-29.415999999999997,-29.415999999999997,-29.415999999999997,North
Lavrentiya,RU,100.0,65.5833,-171.0,1.26,96.0,1.8319999999999936,1.8319999999999936,1.8319999999999936,North
Kuala Terengganu,MY,40.0,5.3302,103.1408,6.69,89.0,78.74600000000004,78.74600000000004,78.74600000000004,North
Shelburne,CA,100.0,44.0787,-80.2041,5.88,81.0,14.576000000000022,11.588000000000022,17.762,North
Mabaruma,GY,34.0,8.2,-59.7833,2.72,73.0,78.31400000000002,78.31400000000002,78.31400000000002,North
Porto-Novo,BJ,1.0,6.4965,2.6036,1.86,75.0,84.02000000000004,84.02000000000004,84.02000000000004,North
Pangkalanbuun,ID,100.0,-2.6833,111.6167,1.21,98.0,73.36399999999998,73.36399999999998,73.36399999999998,South
Half Moon Bay,US,1.0,37.4636,-122.4286,5.14,63.0,53.92399999999992,46.22000000000003,61.05200000000008,North
Sladkovo,RU,100.0,55.5284,70.3385,4.98,88.0,15.673999999999978,15.673999999999978,15.673999999999978,North
Chāmpa,IN,4.0,22.05,82.65,3.17,47.0,58.49600000000004,58.49600000000004,58.49600000000004,North
Gravdal,NO,90.0,68.1214,13.5031,10.8,93.0,33.69199999999995,29.876000000000033,33.69199999999995,North
Otegen Batyra,KZ,40.0,43.4278,77.0222,2.0,80.0,25.357999999999947,25.357999999999947,25.357999999999947,North
Morondava,MG,6.0,-20.2833,44.2833,3.81,69.0,79.93399999999991,79.93399999999991,79.93399999999991,South
Upington,ZA,0.0,-28.4478,21.2561,2.06,16.0,71.97800000000001,71.97800000000001,71.97800000000001,South
Owando,CG,100.0,-0.4819,15.8999,0.8,72.0,76.04599999999999,76.04599999999999,76.04599999999999,South
Maamba,ZM,46.0,-17.3667,27.15,0.35,68.0,74.38999999999993,74.38999999999993,74.38999999999993,South
Yangambi,CD,84.0,0.8102,24.4336,0.57,96.0,69.94400000000002,69.94400000000002,69.94400000000002,North
Tyler,US,1.0,32.3513,-95.3011,1.34,57.0,34.84400000000005,31.603999999999985,37.45400000000001,North
Altay,CN,14.0,47.8667,88.1167,3.34,69.0,12.073999999999955,12.073999999999955,12.073999999999955,North
Ardakān,IR,100.0,32.31,54.0175,4.6,78.0,44.97800000000001,44.97800000000001,44.97800000000001,North
Pacific Grove,US,1.0,36.6177,-121.9166,0.89,59.0,57.18199999999996,52.43000000000001,60.62000000000006,North
North Bend,US,90.0,43.4065,-124.2243,5.14,80.0,50.702000000000055,47.85799999999995,52.916,North
Kloulklubed,PW,96.0,7.0419,134.2556,6.04,66.0,75.70400000000001,75.70400000000001,75.70400000000001,North
Waipawa,NZ,99.0,-41.4122,175.5153,2.62,55.0,67.82,67.29799999999994,69.45799999999991,South
Hauterive,FR,100.0,46.0901,3.4459,2.95,81.0,55.39999999999992,50.089999999999975,56.156000000000006,North
Roebourne,AU,2.0,-20.7833,117.1333,4.06,72.0,80.07800000000003,80.07800000000003,80.07800000000003,South
San Patricio,US,0.0,28.017,-97.5169,10.48,25.0,51.799999999999955,48.847999999999956,55.48999999999995,North
Puerto Colombia,CO,50.0,10.9878,-74.9547,8.22,66.0,86.08999999999997,86.08999999999997,86.08999999999997,North
Boguchany,RU,100.0,58.3814,97.4531,2.83,94.0,12.18199999999996,12.18199999999996,12.18199999999996,North
Lerwick,GB,100.0,60.1545,-1.1494,9.76,87.0,48.19999999999993,48.19999999999993,48.19999999999993,North
Guerrero,MX,0.0,17.6667,-100.0,1.86,29.0,84.416,84.416,84.416,North
Lagos,NG,2.0,6.5833,3.75,1.75,79.0,80.02399999999994,80.02399999999994,80.02399999999994,North
Ures,MX,5.0,29.4333,-110.4,2.66,24.0,68.61200000000002,67.13600000000002,70.26800000000009,North
Cockburn Town,TC,20.0,21.4612,-71.1419,4.12,50.0,80.56400000000002,80.56400000000002,80.56400000000002,North
Petropavlovka,RU,99.0,50.6114,105.3196,1.54,90.0,-6.771999999999991,-6.771999999999991,-6.771999999999991,North
Harsīn,IR,80.0,34.2721,47.5861,1.59,90.0,38.210000000000036,38.210000000000036,38.210000000000036,North
Cayambe,EC,99.0,0.05,-78.1333,1.11,85.0,61.86200000000002,61.86200000000002,61.86200000000002,North
Visnes,NO,75.0,59.3556,5.2242,6.69,93.0,44.726000000000056,44.113999999999976,45.21199999999999,North
Batesville,US,90.0,35.7698,-91.641,3.6,80.0,25.322000000000003,25.214,26.29400000000004,North
Sakakah,SA,67.0,29.9697,40.2064,1.91,67.0,47.76800000000003,47.76800000000003,47.76800000000003,North
Peace River,CA,75.0,56.2501,-117.286,7.2,64.0,-9.093999999999994,-9.093999999999994,-9.093999999999994,North
Cerreto Guidi,IT,100.0,43.7607,10.8761,1.5,92.0,50.79199999999997,48.18199999999996,52.39400000000006,North
Tuy Hoa,VN,100.0,13.0833,109.3,5.16,92.0,71.99600000000004,71.99600000000004,71.99600000000004,North
Lüderitz,NA,0.0,-26.6481,15.1594,8.14,62.0,66.03799999999995,66.03799999999995,66.03799999999995,South
Celestún,MX,0.0,20.8667,-90.4,6.36,75.0,80.85200000000003,80.85200000000003,80.85200000000003,North
Pagėgiai,LT,100.0,55.1381,21.9089,3.49,99.0,42.36800000000005,42.36800000000005,42.36800000000005,North
Samarai,PG,100.0,-10.6167,150.6667,2.43,80.0,80.834,80.834,80.834,South
Mayo,US,100.0,38.8876,-76.5119,0.45,90.0,61.37600000000003,58.51399999999995,63.19400000000002,North
Pak Phanang,TH,93.0,8.3511,100.202,3.39,81.0,76.92800000000005,76.92800000000005,76.92800000000005,North
Filingué,NE,99.0,14.3521,3.3168,5.04,17.0,73.52600000000001,73.52600000000001,73.52600000000001,North
Rørvik,NO,75.0,64.8621,11.2373,8.23,75.0,37.50799999999998,35.581999999999994,37.50799999999998,North
Bayanday,RU,98.0,53.0661,105.5139,0.35,100.0,-7.312000000000012,-7.312000000000012,-7.312000000000012,North
Tirumullaivāsal,IN,40.0,11.2333,79.8333,6.0,82.0,76.22600000000006,76.22600000000006,76.22600000000006,North
Luga,RU,100.0,58.7372,29.8453,3.81,92.0,18.662000000000035,18.662000000000035,18.662000000000035,North
Dolores,AR,27.0,-36.3132,-57.6792,10.15,29.0,91.90400000000005,91.90400000000005,91.90400000000005,South
Noumea,NC,100.0,-22.2763,166.4572,4.7,99.0,84.00200000000001,78.78199999999998,84.00200000000001,South
Kaniv,UA,100.0,49.7518,31.46,4.92,89.0,28.868000000000052,28.868000000000052,28.868000000000052,North
Bilibino,RU,100.0,68.0546,166.4372,1.94,95.0,11.894000000000005,11.894000000000005,11.894000000000005,North
Pasni,PK,27.0,25.2631,63.471,5.3,55.0,72.87799999999999,72.87799999999999,72.87799999999999,North
Tocopilla,CL,16.0,-22.092,-70.1979,2.61,65.0,71.07800000000003,71.07800000000003,71.07800000000003,South
Masvingo,ZW,36.0,-20.0637,30.8277,2.1,86.0,66.84800000000001,66.84800000000001,66.84800000000001,South
Soyo,AO,99.0,-6.1349,12.3689,3.65,87.0,78.67399999999992,78.67399999999992,78.67399999999992,South
Galesong,ID,100.0,-5.3166,119.3661,2.66,85.0,73.41800000000006,73.41800000000006,73.41800000000006,South
Berëzovka,BY,100.0,53.7214,25.4993,5.12,99.0,38.62399999999997,38.62399999999997,38.62399999999997,North
Sunbury,AU,75.0,-37.5833,144.7333,0.45,71.0,61.43000000000001,59.557999999999936,64.48999999999995,South
Tautira,PF,100.0,-17.7333,-149.15,5.48,90.0,84.21800000000002,84.21800000000002,84.21800000000002,South
Kavieng,PG,96.0,-2.5744,150.7967,4.19,76.0,82.43599999999998,82.43599999999998,82.43599999999998,South
Okhotsk,RU,100.0,59.3833,143.3,4.79,91.0,-1.858000000000004,-1.858000000000004,-1.858000000000004,North
Chupa,RU,100.0,66.27,33.0549,1.38,100.0,-13.665999999999997,-13.665999999999997,-13.665999999999997,North
Derzhavīnsk,KZ,100.0,51.1,66.3167,5.12,89.0,16.826000000000022,16.826000000000022,16.826000000000022,North
Cienfuegos,CU,0.0,22.1461,-80.4356,4.12,51.0,84.344,84.344,85.01000000000005,North
Bandundu Province,CD,68.0,-3.3167,17.3667,0.59,81.0,75.43399999999991,75.43399999999991,75.43399999999991,South
Departamento de Maldonado,UY,18.0,-34.6667,-54.9167,5.16,42.0,79.988,79.23200000000003,79.988,South
Kazachinskoye,RU,100.0,57.6953,93.2761,3.21,94.0,14.612000000000023,14.612000000000023,14.612000000000023,North
Itarema,BR,30.0,-2.9248,-39.9167,5.86,78.0,80.59999999999997,80.59999999999997,80.59999999999997,South
Roald,NO,75.0,62.5833,6.1333,6.17,93.0,43.12399999999997,40.99999999999994,45.33800000000002,North
Grand Baie,MU,12.0,-20.0182,57.5802,1.34,73.0,74.44400000000002,73.868,74.44400000000002,South
Labuhan,ID,100.0,-6.8844,112.2051,4.3,88.0,76.71200000000005,76.71200000000005,76.71200000000005,South
Kargasok,RU,84.0,59.0556,80.8572,3.11,97.0,3.613999999999976,3.613999999999976,3.613999999999976,North
Jining,CN,0.0,35.405,116.5814,2.92,77.0,30.307999999999936,30.307999999999936,30.307999999999936,North
Deputatsky,RU,100.0,69.3,139.9,0.73,96.0,-28.46199999999999,-28.46199999999999,-28.46199999999999,North
Biak,ID,100.0,-0.9131,122.8766,1.43,86.0,75.66800000000006,75.66800000000006,75.66800000000006,South
Vostok,RU,100.0,46.4856,135.8833,4.96,96.0,-11.902000000000044,-11.902000000000044,-11.902000000000044,North
Ballina,AU,100.0,-28.8667,153.5667,8.2,95.0,65.94800000000004,64.94,71.78000000000003,South
Sassandra,CI,53.0,4.95,-6.0833,2.64,82.0,79.30400000000003,79.30400000000003,79.30400000000003,North
Tiksi,RU,82.0,71.6872,128.8694,0.98,100.0,-32.134000000000015,-32.134000000000015,-32.134000000000015,North
Acapulco de Juárez,MX,1.0,16.8634,-99.8901,3.09,70.0,84.02000000000004,84.02000000000004,84.02000000000004,North
Ambilobe,MG,100.0,-13.2,49.05,0.99,95.0,75.88399999999996,75.88399999999996,75.88399999999996,South
Plainview,US,75.0,40.7765,-73.4673,1.34,80.0,49.136000000000024,41.52199999999999,53.47399999999999,North
Khor,RU,73.0,47.8861,134.9464,4.78,91.0,-13.54000000000002,-13.54000000000002,-13.54000000000002,North
Najrān,SA,89.0,17.4924,44.1277,2.57,72.0,68.64799999999997,68.64799999999997,68.64799999999997,North
Lancaster,US,90.0,40.2504,-76.2499,6.17,63.0,54.75200000000001,45.26599999999996,59.64799999999997,North
Voh,NC,31.0,-20.9667,164.7,2.23,84.0,80.59999999999997,80.59999999999997,80.59999999999997,South
Rocha,UY,37.0,-34.4833,-54.3333,4.13,48.0,84.632,84.632,84.632,South
Xaçmaz,AZ,100.0,41.4635,48.806,7.34,87.0,42.512,42.512,42.512,North
Detroit,US,90.0,42.3314,-83.0458,1.79,75.0,24.20599999999996,19.868000000000052,26.97800000000001,North
Shimoda,JP,3.0,34.6667,138.95,2.47,75.0,38.10200000000003,38.10200000000003,38.10200000000003,North
Turukhansk,RU,100.0,65.8167,87.9833,5.69,97.0,-12.171999999999969,-12.171999999999969,-12.171999999999969,North
Stilfontein,ZA,0.0,-26.8449,26.7683,2.8,22.0,70.358,70.358,70.358,South
Komatipoort,ZA,100.0,-25.4332,31.9548,2.18,95.0,73.05799999999994,73.05799999999994,73.05799999999994,South
Karpathos,GR,0.0,35.507,27.2132,5.66,72.0,58.964,58.964,58.964,North
Departamento de Canelones,UY,0.0,-34.6444,-56.2886,3.6,35.0,89.69,79.50200000000001,92.80400000000003,South
Port Augusta,AU,0.0,-32.5,137.7667,7.57,67.0,67.71200000000005,66.344,67.71200000000005,South
Wanning,CN,90.0,18.8003,110.3967,2.59,77.0,67.60399999999998,67.60399999999998,67.60399999999998,North
Pisco,PE,0.0,-13.7,-76.2167,4.12,69.0,75.25399999999996,71.02399999999994,75.25399999999996,South
Freistadt,AT,66.0,48.511,14.5045,2.53,77.0,49.47800000000001,44.815999999999974,52.178,North
Bol,TD,65.0,13.4586,14.7147,9.57,44.0,68.55799999999994,68.55799999999994,68.55799999999994,North
Manono,CD,83.0,-7.3,27.4167,1.13,94.0,70.19599999999997,70.19599999999997,70.19599999999997,South
Paciran,ID,100.0,-6.8767,112.3761,4.0,88.0,76.92800000000005,76.92800000000005,76.92800000000005,South
Ganzhou,CN,6.0,28.8184,115.4327,0.35,53.0,44.347999999999956,44.347999999999956,44.347999999999956,North
Ancud,CL,58.0,-41.8697,-73.8203,4.06,64.0,56.93000000000001,56.22800000000001,65.4260000000001,South
Iseyin,NG,0.0,7.9667,3.6,2.5,20.0,82.18399999999991,82.18399999999991,82.18399999999991,North
Severodvinsk,RU,94.0,64.5635,39.8302,3.97,87.0,10.507999999999981,10.112000000000023,10.507999999999981,North
Beringovskiy,RU,100.0,63.05,179.3167,4.27,95.0,24.74599999999998,24.74599999999998,24.74599999999998,North
Batagay,RU,91.0,67.6333,134.6333,0.86,99.0,-56.61400000000003,-56.61400000000003,-56.61400000000003,North
Ushtobe,KZ,100.0,45.2514,77.9838,2.08,83.0,30.236000000000047,30.236000000000047,30.236000000000047,North
Grand-Lahou,CI,27.0,5.1367,-5.0242,3.05,82.0,80.42000000000002,80.42000000000002,80.42000000000002,North
Sinnamary,GF,39.0,5.3833,-52.95,5.17,83.0,77.666,77.666,77.666,North
Zyryanka,RU,100.0,65.75,150.85,3.15,97.0,-26.94999999999999,-26.94999999999999,-26.94999999999999,North
Arandas,MX,1.0,20.7,-102.35,2.31,17.0,75.25399999999996,75.25399999999996,75.25399999999996,North
Tegul'det,RU,100.0,57.3064,88.1667,4.46,84.0,14.989999999999952,14.989999999999952,14.989999999999952,North
Narsaq,GL,99.0,60.9167,-46.05,3.28,91.0,23.21599999999995,23.21599999999995,23.21599999999995,North
Igrim,RU,100.0,63.1906,64.4162,3.26,96.0,3.7760000000000673,3.7760000000000673,3.7760000000000673,North
Mount Gambier,AU,74.0,-37.8333,140.7667,3.66,63.0,58.603999999999985,58.603999999999985,58.603999999999985,South
Muzhi,RU,100.0,65.3667,64.6667,4.23,98.0,-12.675999999999988,-12.675999999999988,-12.675999999999988,North
General Cepeda,MX,0.0,25.3833,-101.45,4.75,24.0,60.20599999999996,60.20599999999996,60.20599999999996,North
Nantucket,US,90.0,41.2835,-70.0995,5.14,91.0,49.27999999999997,44.13199999999995,51.94400000000002,North
Pandan,PH,98.0,14.0453,124.1694,7.98,79.0,76.13600000000002,76.13600000000002,76.13600000000002,North
Trairi,BR,82.0,-3.2778,-39.2689,4.64,80.0,80.25799999999998,80.25799999999998,80.25799999999998,South
Dunda,TZ,96.0,-8.1167,34.25,1.24,95.0,65.44400000000002,65.44400000000002,65.44400000000002,South
Guéret,FR,100.0,46.1667,1.8667,4.55,85.0,47.24599999999998,47.24599999999998,48.829999999999984,North
Luwuk,ID,100.0,-0.9516,122.7875,1.29,88.0,77.30599999999998,77.30599999999998,77.30599999999998,South
Rawson,AR,27.0,-43.3002,-65.1023,13.44,15.0,72.12200000000001,72.12200000000001,72.12200000000001,South
Lively,CA,99.0,46.4334,-81.1498,2.49,65.0,7.231999999999971,5.918000000000063,11.210000000000036,North
Port Blair,IN,28.0,11.6667,92.75,4.54,74.0,78.53000000000003,78.53000000000003,78.53000000000003,North
Uvat,RU,100.0,59.1433,68.8953,4.18,95.0,23.25200000000001,23.25200000000001,23.25200000000001,North
Yinchuan,CN,54.0,38.4681,106.2731,0.68,41.0,22.17199999999997,22.17199999999997,22.17199999999997,North
Quatre Cocos,MU,24.0,-20.2078,57.7625,3.42,74.0,74.084,73.50799999999998,74.084,South
Santa Isabel Rio Negro,BR,88.0,-0.4139,-65.0192,1.27,67.0,83.714,83.714,83.714,South
Vila,PT,98.0,42.0304,-8.1588,1.67,91.0,40.83800000000002,36.733999999999924,45.33800000000002,North
Stawell,AU,2.0,-37.05,142.7667,7.15,72.0,56.58800000000002,56.58800000000002,56.58800000000002,South
Emerald,AU,77.0,-23.5333,148.1667,0.54,59.0,76.334,76.334,76.334,South
Sunnyside,US,40.0,46.3237,-120.0087,0.0,68.0,19.02199999999999,16.879999999999995,21.34400000000005,North
Svolvær,NO,90.0,68.2342,14.5683,14.4,93.0,30.18199999999996,30.163999999999987,33.98000000000002,North
Puerto El Triunfo,SV,39.0,13.2833,-88.55,3.55,63.0,94.28000000000003,87.96200000000005,95.86399999999998,North
Guaymas,MX,1.0,27.9333,-110.9,5.14,46.0,67.55000000000001,67.37000000000006,71.88799999999998,North
Pitimbu,BR,97.0,-7.4706,-34.8086,5.65,76.0,82.99400000000009,82.99400000000009,82.99400000000009,South
Ketchikan,US,90.0,55.3422,-131.6461,2.57,100.0,34.26800000000003,34.26800000000003,37.38199999999995,North
Carballo,ES,100.0,43.213,-8.691,3.08,88.0,56.19199999999995,54.428000000000054,58.01000000000005,North
Conceição da Barra,BR,98.0,-18.5933,-39.7322,3.4,83.0,77.07199999999995,77.07199999999995,77.07199999999995,South
Forbes,AU,0.0,-33.3833,148.0167,2.28,46.0,80.92399999999992,80.92399999999992,80.92399999999992,South
Monopoli,IT,6.0,40.9559,17.2896,2.4,68.0,50.18000000000001,46.615999999999985,54.05000000000001,North
Bara,NG,8.0,10.3744,10.7288,5.73,24.0,71.81599999999997,71.81599999999997,71.81599999999997,North
Lago da Pedra,BR,87.0,-4.3333,-45.1667,2.35,93.0,76.49600000000004,76.49600000000004,76.49600000000004,South
Iqaluit,CA,20.0,63.7506,-68.5145,2.57,65.0,-2.4700000000000273,-2.4700000000000273,-2.4700000000000273,North
Myitkyina,MM,0.0,25.3833,97.4,1.23,73.0,54.48200000000003,54.48200000000003,54.48200000000003,North
Lyuban',BY,100.0,52.7985,28.0048,5.54,98.0,32.773999999999944,32.773999999999944,32.773999999999944,North
Tarakan,ID,75.0,3.3,117.6333,1.03,94.0,76.49600000000004,76.49600000000004,76.49600000000004,North
Gizo Government Station,SB,59.0,-8.103,156.8419,5.06,76.0,83.04799999999994,83.04799999999994,83.04799999999994,South
Port Moresby,PG,100.0,-9.4431,147.1797,2.64,89.0,76.87399999999997,76.87399999999997,76.87399999999997,South
Townsville,AU,34.0,-19.25,146.8,2.57,83.0,81.48200000000003,81.48200000000003,81.48200000000003,South
Kovdor,RU,100.0,67.5662,30.4758,0.59,100.0,-6.699999999999989,-6.699999999999989,-6.699999999999989,North
Luanda,AO,40.0,-8.8368,13.2343,3.09,88.0,76.99999999999994,76.99999999999994,76.99999999999994,South
Yangi Marg`ilon,UZ,97.0,40.4272,71.7189,3.09,59.0,30.920000000000016,30.920000000000016,33.22399999999999,North
Bonthe,SL,93.0,7.5264,-12.505,3.19,77.0,81.15799999999996,81.15799999999996,81.15799999999996,North
Inírida,CO,83.0,3.8653,-67.9239,1.39,63.0,85.4600000000001,85.4600000000001,85.4600000000001,North
Shenjiamen,CN,2.0,29.9576,122.298,1.76,74.0,47.13799999999998,47.13799999999998,47.13799999999998,North
Mezen',RU,100.0,65.8522,44.24,3.47,95.0,4.657999999999959,4.657999999999959,4.657999999999959,North
Kupang,ID,71.0,-10.1667,123.5833,1.67,83.0,79.53799999999995,79.53799999999995,79.53799999999995,South
Naliya,IN,1.0,23.2667,68.8333,4.06,39.0,68.25200000000001,68.25200000000001,68.25200000000001,North
San Cristobal,VE,57.0,7.7669,-72.225,1.74,40.0,78.97999999999996,78.97999999999996,78.97999999999996,North
Codrington,AU,78.0,-38.2667,141.9667,4.88,60.0,60.241999999999905,60.241999999999905,60.241999999999905,South
Kostanay,KZ,100.0,53.1667,63.5833,6.65,94.0,20.24599999999998,20.24599999999998,20.24599999999998,North
Dullewala,PK,100.0,31.8359,71.4362,2.68,32.0,57.43399999999991,57.43399999999991,57.43399999999991,North
Zabul Province,AF,100.0,32.25,67.25,4.41,69.0,43.483999999999924,43.483999999999924,43.483999999999924,North
Kashgar,CN,20.0,39.4547,75.9797,3.0,63.0,20.40799999999996,20.40799999999996,20.40799999999996,North
Mut,TR,41.0,36.6439,33.4389,6.24,72.0,44.77999999999997,44.77999999999997,44.77999999999997,North
Rockhampton,AU,90.0,-23.3833,150.5,1.54,83.0,76.892,76.892,76.892,South
Matara,LK,4.0,5.9485,80.5353,3.97,87.0,74.47999999999996,74.47999999999996,74.47999999999996,North
Itaituba,BR,40.0,-4.2761,-55.9836,1.03,89.0,82.56200000000007,82.56200000000007,82.56200000000007,South
Alice Springs,AU,2.0,-23.7,133.8833,0.0,33.0,74.74999999999994,74.74999999999994,74.74999999999994,South
Mnogovershinnyy,RU,95.0,53.9353,139.9242,1.9,97.0,-24.375999999999976,-24.375999999999976,-24.375999999999976,North
Longido,TZ,7.0,-2.7333,36.6833,5.18,81.0,65.76800000000009,65.76800000000009,65.76800000000009,South
Plettenberg Bay,ZA,62.0,-34.0527,23.3716,0.99,77.0,61.73600000000005,61.73600000000005,61.73600000000005,South
Hope,US,100.0,33.6671,-93.5916,6.13,45.0,28.454000000000008,28.454000000000008,28.454000000000008,North
Upata,VE,19.0,8.0086,-62.3989,2.95,50.0,79.52000000000004,79.52000000000004,79.52000000000004,North
